Outlet,Group 1 Wins,Group 2 Wins,Full Address,Postal Code,Area,Latitude,Longitude,Group 1 Z-Score,Group 2 Z-Score,Luckiness Index
Delisia Agency Pte Ltd,18,79,"Fu Lu Shou Complex, 149 Rochor Road, Singapore 188425, Singapore",188425.0,Rochor,1.3012117,103.8545325,4.569420056297056,4.305074923929442,4.437247490113249
Tong Aik Huat,14,102,"685 Hougang Street 61, Singapore 530685, Singapore",530685.0,Hougang,1.374993,103.8858538,3.2982415101837685,5.935472618270272,4.616857064227021
NTUC FP Nex,14,58,"325 Serangoon Avenue 3, Singapore 550325, Singapore",550325.0,Serangoon,1.3506853,103.8694,3.2982415101837685,2.816450942139988,3.0573462261618785
Singapore Pools Suntec City,13,27,"Suntec City, 3 Temasek Boulevard, Singapore 038983, Singapore",38983.0,Downtown Core,1.295664,103.8585812,2.980446873655447,0.6189583975936511,1.799702635624549
Singapore Pools King George's Ave Branch,13,28,"803 King George's Avenue, Singapore 200803, Singapore",200803.0,Kallang,1.3080582,103.8611995,2.980446873655447,0.6898452538693394,1.835146063762393
Fatt Chye Heng Trading,13,42,"7 Hougang Avenue 3, Singapore 531376, Singapore",531376.0,Hougang,1.3622768,103.8932954,2.980446873655447,1.6822612417289753,2.331354057692211
Tan Wee Fong Trading,12,58,"24 Bendemeer Road, Singapore 330024, Singapore",330024.0,Kallang,1.3185181,103.8625287,2.662652237127125,2.816450942139988,2.7395515896335567
Mee Lee Cheong Pte Ltd,12,44,"139 Tampines Street 11, Singapore 521139, Singapore",521139.0,Tampines,1.3460554,103.9446434,2.662652237127125,1.824034954280352,2.2433435957037386
Singapore Pools Lor 1 Toa Payoh Branch,11,33,"111 Lorong 1 Toa Payoh, Singapore 310111, Singapore",310111.0,Toa Payoh,1.3412566,103.8456517,2.3448576005988033,1.0442795352477807,1.694568567923292
Singapore Pools Clementi N7 Branch,11,28,"722 Clementi West Street 2, Singapore 120722, Singapore",120722.0,Clementi,1.302885,103.7637968,2.3448576005988033,0.6898452538693394,1.5173514272340713
NTUC FP Tampines Mall,11,40,"Tampines Mall, 4 Tampines Central 5, Singapore 529509, Singapore",529509.0,Tampines,1.3523484,103.944448,2.3448576005988033,1.5404875291775988,1.942672564888201
Ng Teo Guan Self Service,11,59,"301 Ubi Avenue 1, Singapore 400301, Singapore",400301.0,Geylang,1.3307113,103.9020287,2.3448576005988033,2.8873377984156763,2.6160976995072396
Singapore Pools Whampoa Dr Branch,10,40,"88 Whampoa Drive, Singapore 320089, Singapore",320089.0,Novena,1.323243,103.8552345,2.0270629640704816,1.5404875291775988,1.7837752466240402
Singapore Pools Tanjong Pagar Branch,10,47,"Tanjong Pagar Plaza, 1 Tanjong Pagar Road, Singapore 082001, Singapore",82001.0,Outram,1.2754372,103.8429027,2.0270629640704816,2.036695523107417,2.031879243588949
Singapore Pools Hougang N2 Branch,10,48,"211 Hougang Street 21, Singapore 530211, Singapore",530211.0,Hougang,1.3598611,103.8878231,2.0270629640704816,2.107582379383105,2.067322671726793
Singapore Pools Hougang N1 Branch,10,34,"941 Upper Serangoon Road, Singapore 534711, Singapore",534711.0,Hougang,1.3612182,103.8862529,2.0270629640704816,1.115166391523469,1.5711146777969753
NTUC FP AMK Hub,10,43,"Ang Mo Kio Hub, 53 Ang Mo Kio Avenue 3, Singapore 569933, Singapore",569933.0,Ang Mo Kio,1.3690023,103.8481594,2.0270629640704816,1.7531480980046636,1.8901055310375727
Laura's Gifts,10,25,"442 Pasir Ris Drive 6, Singapore 510442, Singapore",510442.0,Pasir Ris,1.3688937,103.9582616,2.0270629640704816,0.47718468504227457,1.2521238245563782
7-Eleven Yishun Ring Road,10,44,"760 Yishun Avenue 3, Singapore 760774, Singapore",760774.0,Yishun,1.4260651,103.8321027,2.0270629640704816,1.824034954280352,1.925548959175417
7-Eleven Eunos Crescent,10,28,"5 Eunos Crescent, Singapore 400005, Singapore",400005.0,Geylang,1.3215159,103.9037403,2.0270629640704816,0.6898452538693394,1.3584541089699105
Tampines Trading 828,9,40,"828 Tampines Street 81, Singapore 520828, Singapore",520828.0,Tampines,1.3488425,103.9352547,1.7092683275421598,1.5404875291775988,1.6248779283598793
Singapore Pools Yishun N1 Branch,9,42,"Yishun Avenue 5, Singapore 768794, Singapore",768794.0,Yishun,1.430368,103.8353628,1.7092683275421598,1.6822612417289753,1.6957647846355677
Singapore Pools Teck Whye Branch,9,31,"141 Teck Whye Lane, Singapore 680141, Singapore",680141.0,Choa Chu Kang,1.3804868,103.7523188,1.7092683275421598,0.9025058226964042,1.3058870751192821
Singapore Pools IMM Branch,9,35,"IMM, 2 Jurong East Street 21, Singapore 609601, Singapore",609601.0,Jurong East,1.334992,103.747156,1.7092683275421598,1.1860532477991574,1.4476607876706586
Singapore Pools Bencoolen Branch,9,39,"The Bencoolen, Seah Street, Singapore 188382, Singapore",188382.0,Downtown Core,1.3019569,103.8531623,1.7092683275421598,1.4696006729019104,1.5894345002220351
Rangoon Provision Shop,9,27,"681 Race Course Road, Singapore 218123, Singapore",218123.0,Kallang,1.3139744,103.8550342,1.7092683275421598,0.6189583975936511,1.1641133625679054
NTUC FP Toa Payoh HDB Centre,9,25,"Toa Payoh East, Singapore 311019, Singapore",311019.0,Toa Payoh,1.3343035,103.8563265,1.7092683275421598,0.47718468504227457,1.0932265062922173
NTUC FP Jurong East Gateway Road,9,38,"JEM, 50 Jurong Gateway Road, Singapore 608549, Singapore",608549.0,Jurong East,1.3328572,103.7435522,1.7092683275421598,1.3987138166262223,1.553991072084191
Jake Merchandise Associates,9,29,"504 Tampines Central 1, Singapore 520501, Singapore",520501.0,Tampines,1.3564777,103.9456697,1.7092683275421598,0.7607321101450277,1.2350002188435938
Wanrise,8,32,"47 Sims Place, Singapore 380047, Singapore",380047.0,Geylang,1.3179319,103.8790692,1.391473691013838,0.9733926789720926,1.1824331849929655
Tan Boon Tin Agency,8,23,"56 Marine Crescent, Singapore 440056, Singapore",440056.0,Marine Parade,1.3056035,103.9153585,1.391473691013838,0.335410972490898,0.8634423317523681
Singapore Pools Tampines Mart Branch,8,19,"Tampines Mart, Tampines Street 34, Singapore 520358, Singapore",520358.0,Tampines,1.3544742,103.9602966,1.391473691013838,0.05186354738814488,0.7216686192009915
Singapore Pools Lor 8 Toa Payoh Branch,8,24,"212 Lorong 8 Toa Payoh, Singapore 310212, Singapore",310212.0,Toa Payoh,1.3406805,103.8542859,1.391473691013838,0.40629782876658627,0.8988857598902122
Singapore Pools Jurong West N4 Branch,8,41,"498 Jurong West Street 41, Singapore 640498, Singapore",640498.0,Jurong West,1.3488039,103.7244554,1.391473691013838,1.6113743854532872,1.5014240382335626
Singapore Pools Chinatown Branch,8,54,"3 McCallum Street, Singapore 069047, Singapore",69047.0,Downtown Core,1.2796704,103.8475525,1.391473691013838,2.532903517037235,1.9621886040255365
PFG Framing & Trading,8,33,"960 Jurong West Street 92, Singapore 640960, Singapore",640960.0,Jurong West,1.3413833,103.6917323,1.391473691013838,1.0442795352477807,1.2178766131308094
NTUC FP Yishun MRT Station,8,30,"Yishun Avenue 2, Singapore 769093, Singapore",769093.0,Yishun,1.429387,103.8350907,1.391473691013838,0.831618966420716,1.111546328717277
NTUC FP Lot 1 Shoppers Mall,8,24,"Lot One Shoppers' Mall, 21 Choa Chu Kang Avenue 4, Singapore 689812, Singapore",689812.0,Choa Chu Kang,1.384959,103.7451389,1.391473691013838,0.40629782876658627,0.8988857598902122
NTUC FP Bukit Batok MRT Station,8,23,"10 Bukit Batok Central, Singapore 659958, Singapore",659958.0,Bukit Batok,1.3490579,103.7496251,1.391473691013838,0.335410972490898,0.8634423317523681
NTUC FP Bedok North St 4,8,13,"89 Bedok North Avenue 4, Singapore 460089, Singapore",460089.0,Bedok,1.3320812,103.9382634,1.391473691013838,-0.3734575902659848,0.5090080503739267
Livewire (Singapore Pools),8,32,"Hotel Clover Hongkong Street, Central Water Catchment, Singapore",,Central Water Catchment,1.352083,103.819836,1.391473691013838,0.9733926789720926,1.1824331849929655
Cheers Harbourfront Centre,8,25,"HarbourFront Centre, 2 Maritime Square, Singapore 099253, Singapore",99253.0,Bukit Merah,1.2643689,103.8200727,1.391473691013838,0.47718468504227457,0.9343291880280563
Singapore Pools Serangoon Central Branch,7,36,"254 Serangoon Central Drive, Singapore 550254, Singapore",550254.0,Serangoon,1.3541926,103.8711495,1.0736790544855164,1.2569401040748456,1.1653095792801809
Singapore Pools New Upper Changi Branch,7,19,"26 New Upper Changi Road, Singapore 462026, Singapore",462026.0,Bedok,1.3232231,103.9341789,1.0736790544855164,0.05186354738814488,0.5627713009368306
Singapore Pools Lucky Plaza Branch,7,45,"Lucky Plaza, 304 Orchard Road, Singapore 238863, Singapore",238863.0,Orchard,1.3046391,103.8341137,1.0736790544855164,1.8949218105560401,1.4843004325207783
Singapore Pools Jurong West N5 Branch,7,45,"508 Jurong West Avenue 1, Singapore 640508, Singapore",640508.0,Jurong West,1.3487409,103.7185553,1.0736790544855164,1.8949218105560401,1.4843004325207783
Singapore Pools Holland Drive Branch,7,45,"46 Holland Drive, Singapore 270046, Singapore",270046.0,Queenstown,1.3088172,103.7927834,1.0736790544855164,1.8949218105560401,1.4843004325207783
Singapore Pools Clementi N3 Branch,7,28,"325 Clementi Avenue 5, Singapore 120325, Singapore",120325.0,Clementi,1.3149354,103.7668267,1.0736790544855164,0.6898452538693394,0.8817621541774279
Singapore Pools Ang Mo Kio N7 Branch,7,41,"726 Ang Mo Kio Avenue 6, Singapore 560726, Singapore",560726.0,Ang Mo Kio,1.372754,103.8464776,1.0736790544855164,1.6113743854532872,1.3425267199694018
Singapore Pools Anchorvale Rd Branch,7,19,"308 Anchorvale Road, Singapore 540308, Singapore",540308.0,Seng Kang,1.3895484,103.8862946,1.0736790544855164,0.05186354738814488,0.5627713009368306
NTUC FP Tanjong Pagar Plaza,7,18,"Tanjong Pagar Plaza, 1 Tanjong Pagar Road, Singapore 082001, Singapore",82001.0,Outram,1.2758753,103.8430795,1.0736790544855164,-0.019023308887543406,0.5273278727989865
NTUC FP Jurong Point,7,72,"Jurong Point, 1 Jurong West Central 2, Singapore 648886, Singapore",648886.0,Jurong West,1.340096,103.7070117,1.0736790544855164,3.808866929999624,2.4412729922425704
NTUC FP Clementi Avenue 3,7,26,"451 Clementi Avenue 3, Singapore 120451, Singapore",120451.0,Clementi,1.3127067,103.7656936,1.0736790544855164,0.5480715413179629,0.8108752979017396
Livewire (Resorts World Sentosa),7,35,"Resorts World Sentosa, 8 Sentosa Gateway, Singapore 098269, Singapore",98269.0,Southern Islands,1.2569732,103.8199962,1.0736790544855164,1.1860532477991574,1.129866151142337
Livewire (Marina Bay Sands),7,25,"Ippudo, 2 Bayfront Avenue, Singapore 018972, Singapore",18972.0,Downtown Core,1.2849822,103.8603664,1.0736790544855164,0.47718468504227457,0.7754318697638954
Lee Eng Trading Store,7,30,"201B Tampines Street 21, Singapore 522201, Singapore",522201.0,Tampines,1.353252,103.9530247,1.0736790544855164,0.831618966420716,0.9526490104531162
Giant Sunshine Place,7,23,"458 Choa Chu Kang Avenue 4, Singapore 680458, Singapore",680458.0,Choa Chu Kang,1.3781087,103.7362,1.0736790544855164,0.335410972490898,0.7045450134882072
Evercool Engineering,7,23,"95 Lorong 4 Toa Payoh, Singapore 310095, Singapore",310095.0,Toa Payoh,1.3392316,103.849046,1.0736790544855164,0.335410972490898,0.7045450134882072
Xie Sheng Dept Service Co,6,22,"632 Bedok Reservoir Road, Singapore 470632, Singapore",470632.0,Bedok,1.332397,103.9146989,0.7558844179571946,0.2645241162152097,0.5102042670862021
Vitatron & Medical Co,6,22,"60 Smith Street, Singapore 058968, Singapore",58968.0,Outram,1.2828995,103.8433133,0.7558844179571946,0.2645241162152097,0.5102042670862021
Tay Sui Lan Agency,6,34,"The Arcade, 11 Collyer Quay, Singapore 049317, Singapore",49317.0,Downtown Core,1.2837058,103.8518051,0.7558844179571946,1.115166391523469,0.9355254047403319
Soh Choo Trading,6,28,"19 Marsiling Lane, Singapore 730019, Singapore",730019.0,Woodlands,1.4434316,103.7773369,0.7558844179571946,0.6898452538693394,0.722864835913267
Singapore Pools Woodlands N3 Branch,6,35,"305 Woodlands Street 31, Singapore 730305, Singapore",730305.0,Woodlands,1.4304237,103.7739168,0.7558844179571946,1.1860532477991574,0.970968832878176
Singapore Pools Tampines N4 Branch,6,15,"481 Tampines Street 44, Singapore 520481, Singapore",520481.0,Tampines,1.3616519,103.9532662,0.7558844179571946,-0.23168387771460824,0.2621002701212932
Singapore Pools Pasir Ris N2 Branch,6,33,"Pasir Ris Drive 1, Singapore 518070, Singapore",518070.0,Pasir Ris,1.3720937,103.9473728,0.7558844179571946,1.0442795352477807,0.9000819766024877
Singapore Pools Lor 25A Geylang Branch,6,40,"Singapore Pools, Lorong 25A Geylang, Singapore 388250, Singapore",388250.0,Geylang,1.3155499,103.8831957,0.7558844179571946,1.5404875291775988,1.1481859735673967
Singapore Pools Hougang N3 Branch,6,17,"322 Hougang Avenue 5, Singapore 530322, Singapore",530322.0,Hougang,1.3670641,103.8975025,0.7558844179571946,-0.08991016516323169,0.33298712639698147
Singapore Pools Gek Poh Shopping Centre,6,36,"Gek Poh Shopping Centre, 762 Jurong West Street 75, Singapore 640762, Singapore",640762.0,Jurong West,1.3492289,103.6974381,0.7558844179571946,1.2569401040748456,1.00641226101602
Singapore Pools Bishan N2 Branch,6,25,"Suwen TCM Clinic Pte Ltd, 215H Upper Thomson Road, Singapore 574355, Singapore",574355.0,Bishan,1.3525845,103.8352116,0.7558844179571946,0.47718468504227457,0.6165345514997346
Singapore Pools Bedok Town Centre Branch,6,41,"212 Bedok North Street 1, Singapore 460212, Singapore",460212.0,Bedok,1.3259118,103.9315981,0.7558844179571946,1.6113743854532872,1.183629401705241
Singapore Pools Ang Mo Kio N6 Branch,6,28,"630 Ang Mo Kio Street 61, Singapore 560632, Singapore",560632.0,Ang Mo Kio,1.3804423,103.841199,0.7558844179571946,0.6898452538693394,0.722864835913267
Singapore Pools Ang Mo Kio N2 Branch,6,31,"North-South Corridor, Singapore 560728, Singapore",560728.0,Ang Mo Kio,1.3691149,103.8454342,0.7558844179571946,0.9025058226964042,0.8291951203267994
Seah Koon Huat (Bukit Merah View),6,21,"116 Bukit Merah View, Singapore 150116, Singapore",150116.0,Bukit Merah,1.2850887,103.8212897,0.7558844179571946,0.19363725993952144,0.474760838948358
Prime Punggol Field,6,19,"Blk 102B, 102B Punggol Field, Singapore 820198, Singapore",820198.0,Punggol,1.399453,103.905639,0.7558844179571946,0.05186354738814488,0.4038739826726698
NTUC FP Sun Plaza,6,27,"Sun Plaza, 30 Sembawang Drive, Singapore 757713, Singapore",757713.0,Sembawang,1.4481787,103.8194632,0.7558844179571946,0.6189583975936511,0.6874214077754228
NTUC FP Serangoon North Avenue 1,6,22,"152B Serangoon North Avenue 1, Singapore 550152, Singapore",550152.0,Serangoon,1.3698238,103.8728765,0.7558844179571946,0.2645241162152097,0.5102042670862021
NTUC FP Bukit Merah Central,6,29,"166 Bukit Merah Central, Singapore 150166, Singapore",150166.0,Bukit Merah,1.2831068,103.8178359,0.7558844179571946,0.7607321101450277,0.7583082640511112
Metro Woodlands,6,22,"101 Woodlands Street 13, Singapore 730101, Singapore",730101.0,Woodlands,1.4361425,103.783,0.7558844179571946,0.2645241162152097,0.5102042670862021
Kis Store,6,15,"Spectacle Culture, South Bridge Road, Singapore 058727, Singapore",58727.0,Outram,1.2846544,103.8468237,0.7558844179571946,-0.23168387771460824,0.2621002701212932
Hin Teck Leong Trading Company,6,0,"Little India, Rochor Canal Road, Singapore 188505, Singapore",188505.0,Rochor,1.3078063,103.8522,0.7558844179571946,-1.2949867218499325,-0.2695511519463689
Chua Yan Kee,6,8,"49 Commonwealth Drive, Singapore 142049, Singapore",142049.0,Queenstown,1.3006782,103.7972567,0.7558844179571946,-0.7278918716444263,0.013996273156384187
Chng Siow Eng Agency,6,22,"Elias Mall, 625 Elias Road, Singapore 510625, Singapore",510625.0,Pasir Ris,1.3786144,103.9420438,0.7558844179571946,0.2645241162152097,0.5102042670862021
Cheers Hougang Central,6,31,"811, CP, Singapore 530809, Singapore",530809.0,Hougang,1.3715527,103.8936459,0.7558844179571946,0.9025058226964042,0.8291951203267994
Cheers Changi Village Road,6,36,"4 Changi Village Road, Singapore 500004, Singapore",500004.0,Changi,1.3891466,103.9874204,0.7558844179571946,1.2569401040748456,1.00641226101602
Wong Teck Chow Enterprise (Pte) Ltd,5,4,"Golden Landmark Shopping Centre, 390 Victoria Street, Singapore 188061, Singapore",188061.0,Rochor,1.3020404,103.8576952,0.43808978142887295,-1.0114392967471793,-0.2866747576591532
Teo Sook Cheng Agency,5,53,"#01-261 Blk 293 Yishun St 22, Singapore 760264, Singapore",760264.0,Yishun,1.4359338,103.8380677,0.43808978142887295,2.4620166607615466,1.4500532210952097
Singapore Pools Woodlands N5 Branch,5,28,"#01-37 Blk 548 Woodlands Drive 44, Vista Point, Singapore 730530, Singapore",730530.0,Woodlands,1.4313546,103.7940534,0.43808978142887295,0.6898452538693394,0.5639675176491061
Singapore Pools Woodlands 888 Branch,5,37,"Woodlands Avenue 2, Singapore 738526, Singapore",738526.0,Woodlands,1.4381922,103.7889597,0.43808978142887295,1.327826960350534,0.8829583708897034
Singapore Pools Siglap Branch,5,16,"697D East Coast Road, Singapore 459062, Singapore",459062.0,Frankel,1.3120257,103.9221698,0.43808978142887295,-0.16079702143891997,0.13864637999497648
Singapore Pools Potong Pasir Branch,5,12,"62 Potong Pasir Avenue 1, Singapore 350121, Singapore",350121.0,Toa Payoh,1.3360597,103.8648815,0.43808978142887295,-0.4443444465416731,-0.0031273325564000753
Singapore Pools Jurong West N2 Branch,5,14,"Boon Lay Way, Singapore 642697, Singapore",642697.0,Jurong West,1.3403898,103.7089875,0.43808978142887295,-0.30257073399029655,0.0677595237192882
Singapore Pools Jurong East Branch,5,37,"351 Jurong East Street 31, Singapore 600351, Singapore",600351.0,Jurong East,1.3447228,103.7308172,0.43808978142887295,1.327826960350534,0.8829583708897034
Singapore Pools Clementi Town Centre Branch,5,52,"446 Clementi Avenue 3, Singapore 120446, Singapore",120446.0,Clementi,1.3123803,103.764809,0.43808978142887295,2.3911298044858587,1.4146097929573658
Singapore Pools Choa Chu Kang Branch,5,38,"689B Choa Chu Kang Drive, Singapore 681672, Singapore",681672.0,Yew Tee,1.4030224,103.7497915,0.43808978142887295,1.3987138166262223,0.9184017990275476
Singapore Pools Bukit Panjang Branch,5,35,"Blk 257 Bangkit Road, Singapore 670256, Singapore",670256.0,Bukit Panjang,1.3785549,103.7729193,0.43808978142887295,1.1860532477991574,0.8120715146140152
Singapore Pools Ang Mo Kio N4 Branch,5,36,"447 Ang Mo Kio Avenue 10, Singapore 560447, Singapore",560447.0,Ang Mo Kio,1.3674091,103.8560374,0.43808978142887295,1.2569401040748456,0.8475149427518592
Singapore Pools 64 Circuit Rd Branch,5,10,"64 Circuit Road, Singapore 370064, Singapore",370064.0,Geylang,1.3271128,103.8871285,0.43808978142887295,-0.5861181590930497,-0.07401418883208835
Sheng Siong Junction 9,5,10,"Junction Nine, Yishun Avenue 9, Singapore 768897, Singapore",768897.0,Yishun,1.4332086,103.8419101,0.43808978142887295,-0.5861181590930497,-0.07401418883208835
Prime Chai Chee,5,11,"750B Chai Chee Road, Singapore 460027, Singapore",460027.0,Bedok,1.3232446,103.9215,0.43808978142887295,-0.5152313028173614,-0.03857076069424423
NTUC FP Yishun Ring Rd,5,26,"414 Yishun Ring Road, Singapore 760413, Singapore",760413.0,Yishun,1.4245498,103.8466415,0.43808978142887295,0.5480715413179629,0.4930806613734179
NTUC FP White Sands,5,31,"570 Pasir Ris Street 53, Singapore 510570, Singapore",510570.0,Pasir Ris,1.3725642,103.9469,0.43808978142887295,0.9025058226964042,0.6702978020626386
NTUC FP Havelock Road,5,4,"50 Beo Crescent, Singapore 160050, Singapore",160050.0,Bukit Merah,1.2898284,103.8267171,0.43808978142887295,-1.0114392967471793,-0.2866747576591532
NTUC FP Boon Lay Place,5,40,"Jalan Buroh, Singapore 619175, Singapore",619175.0,Boon Lay,1.3142556,103.7093099,0.43808978142887295,1.5404875291775988,0.9892886553032358
Ng Nam Thye Trading,5,21,"Taman Jurong Shopping Centre, 399 Yung Sheng Road, Singapore 610399, Singapore",610399.0,Jurong West,1.3345709,103.72059,0.43808978142887295,0.19363725993952144,0.3158635206841972
Nan Huat Wine Store,5,32,"513 Bishan Street 13, Singapore 570513, Singapore",570513.0,Bishan,1.3495879,103.8494614,0.43808978142887295,0.9733926789720926,0.7057412302004827
Lucky Hill,5,11,"Radin Mas Primary School, 1 Bukit Purmei Avenue, Singapore 099840, Singapore",99840.0,Bukit Merah,1.2745295,103.8233,0.43808978142887295,-0.5152313028173614,-0.03857076069424423
Giant Parkway Parade,5,16,"Parkway Parade, 80 Marine Parade Road, Singapore 449269, Singapore",449269.0,Marine Parade,1.3013366,103.9052333,0.43808978142887295,-0.16079702143891997,0.13864637999497648
Everstream Trading,5,38,"283 Bukit Batok East Avenue 3, Singapore 650283, Singapore",650283.0,Bukit Batok,1.3471972,103.7576875,0.43808978142887295,1.3987138166262223,0.9184017990275476
Dawn Florist,5,18,"Western Islands, Southwest, Singapore",,Western Islands,1.2745282,103.7433,0.43808978142887295,-0.019023308887543406,0.20953323627066478
Cold Storage Northpoint,5,25,"Northpoint City, 930 Yishun Avenue 2, Singapore 769098, Singapore",769098.0,Yishun,1.4293478,103.8358671,0.43808978142887295,0.47718468504227457,0.45763723323557376
Clifford Gift Shop,5,32,"532 Ang Mo Kio Avenue 10, Singapore 560532, Singapore",560532.0,Ang Mo Kio,1.3738269,103.8551874,0.43808978142887295,0.9733926789720926,0.7057412302004827
Cheers New Upper Changi Rd,5,20,"Sky Eden@Bedok (U/C), 799 New Upper Changi Road, Singapore 467351, Singapore",467351.0,Bedok,1.325244,103.932204,0.43808978142887295,0.12275040366383316,0.28042009254635303
Afro Asia Co Pte Ltd,5,14,"322 Tengah Drive, Singapore 690322, Singapore",690322.0,Park,1.3651116,103.7381,0.43808978142887295,-0.30257073399029655,0.0677595237192882
7-Eleven Sixth Avenue,5,11,"11 Maple Avenue, Singapore 279886, Singapore",279886.0,Bukit Timah,1.3311169,103.7926,0.43808978142887295,-0.5152313028173614,-0.03857076069424423
7-Eleven Owen Road,5,13,"44 Dorset Road, Singapore 218953, Singapore",218953.0,Kallang,1.3158217,103.8507664,0.43808978142887295,-0.3734575902659848,0.032316095581444076
Yeo Soon Huat,4,9,"70 Lorong 4 Toa Payoh, Singapore 310070, Singapore",310070.0,Toa Payoh,1.3343937,103.8524032,0.12029514490055122,-0.6570050153687379,-0.2683549352340933
U Stars Sumang Walk,4,2,"Matilda Portico, 218 Sumang Walk, Singapore 820218, Singapore",820218.0,Punggol,1.4032997,103.8950457,0.12029514490055122,-1.153213009298556,-0.5164589321990024
Tuck Lee Long,4,19,"159 Ang Mo Kio Avenue 4, Singapore 560616, Singapore",560616.0,Ang Mo Kio,1.374789,103.8398767,0.12029514490055122,0.05186354738814488,0.08607934614434805
Teo Khar Bee Agency,4,26,"72 Redhill Road, Singapore 150072, Singapore",150072.0,Bukit Merah,1.2872356,103.8162,0.12029514490055122,0.5480715413179629,0.33418334310925707
Tay Ah Tho Trading,4,19,"768 Woodlands Avenue 6, Singapore 732799, Singapore",732799.0,Woodlands,1.445962,103.798159,0.12029514490055122,0.05186354738814488,0.08607934614434805
Tan Kai Huat Provision Shop,4,14,"123 Hougang Avenue 1, Singapore 530123, Singapore",530123.0,Hougang,1.3533485,103.8861709,0.12029514490055122,-0.30257073399029655,-0.09113779454487267
Singapore Pools Silat Ave Branch,4,11,"150 Silat Avenue, Singapore 160150, Singapore",160150.0,Bukit Merah,1.2770211,103.8314085,0.12029514490055122,-0.5152313028173614,-0.1974680789584051
Singapore Pools LOT One Branch,4,11,"Lot One Shoppers' Mall, 21 Choa Chu Kang Avenue 4, Singapore 689812, Singapore",689812.0,Choa Chu Kang,1.3849961,103.7451511,0.12029514490055122,-0.5152313028173614,-0.1974680789584051
Singapore Pools Jalan Tiga Branch,4,33,"41 Jalan Tiga, Singapore 390041, Singapore",390041.0,Geylang,1.3078367,103.8847076,0.12029514490055122,1.0442795352477807,0.5822873400741659
Singapore Pools Ghim Moh Branch,4,13,"21 Ghim Moh Road, Singapore 270021, Singapore",270021.0,Queenstown,1.3100933,103.7884694,0.12029514490055122,-0.3734575902659848,-0.1265812226827168
Singapore Pools Geylang Bahru Branch,4,16,"68 Geylang Bahru, Singapore 330068, Singapore",330068.0,Kallang,1.3222623,103.8704758,0.12029514490055122,-0.16079702143891997,-0.020250938269184372
Singapore Pools Funan Branch,4,6,"Funan, 107 North Bridge Road, Singapore 179105, Singapore",179105.0,Downtown Core,1.2912647,103.8501932,0.12029514490055122,-0.8696655841958028,-0.37468521964762574
Singapore Pools Chinatown Point Branch,4,55,"3 McCallum Street, Singapore 069047, Singapore",69047.0,Downtown Core,1.2796704,103.8475525,0.12029514490055122,2.6037903733129233,1.3620427591067372
Singapore Pools Chin Swee Branch,4,14,"53 Chin Swee Road, Singapore 160053, Singapore",160053.0,Outram,1.2876753,103.8415514,0.12029514490055122,-0.30257073399029655,-0.09113779454487267
Singapore Pools Cheong Chin Nam Rd Branch,4,21,"5 Cheong Chin Nam Road, Singapore 599744, Singapore",599744.0,Hillview,1.3424696,103.7753346,0.12029514490055122,0.19363725993952144,0.15696620242003634
Singapore Pools Bukit Batok Central Branch,4,39,"642 Bukit Batok Central, Singapore 650642, Singapore",650642.0,Bukit Batok,1.3489923,103.7517942,0.12029514490055122,1.4696006729019104,0.7949479089012308
Singapore Pools Beo Crescent Branch,4,20,"36 Beo Crescent, Singapore 160040, Singapore",160040.0,Bukit Merah,1.2883928,103.8270797,0.12029514490055122,0.12275040366383316,0.12152277428219219
Singapore Pools Bedok North Branch,4,22,"Bedok North Road, Singapore 460516, Singapore",460516.0,Bedok,1.3306806,103.9305125,0.12029514490055122,0.2645241162152097,0.19240963055788046
Singapore Pools 88 Circuit Rd Branch,4,21,"88 Pipit Road, Singapore 370088, Singapore",370088.0,Geylang,1.3236883,103.8858681,0.12029514490055122,0.19363725993952144,0.15696620242003634
Sheng Moh Fruits & Provision Store,4,9,"1A Jalan Mas Puteh, Singapore 128607, Singapore",128607.0,Clementi,1.3083357,103.7621136,0.12029514490055122,-0.6570050153687379,-0.2683549352340933
Prime Keat Hong,4,13,"Keat Hong Shopping Centre, 253 Choa Chu Kang Avenue 1, Singapore 680253, Singapore",680253.0,Choa Chu Kang,1.3780745,103.7442567,0.12029514490055122,-0.3734575902659848,-0.1265812226827168
OCN (Singapore) Pte Ltd,4,30,"Hotel Clover Hongkong Street, Central Water Catchment, Singapore",,Central Water Catchment,1.352083,103.819836,0.12029514490055122,0.831618966420716,0.4759570556606336
NTUC FP Yung Kuang Road,4,15,"65 Yung Kuang Road, Singapore 610065, Singapore",610065.0,Jurong West,1.3322984,103.7226983,0.12029514490055122,-0.23168387771460824,-0.05569436640702851
NTUC FP Warehouse Club,4,15,"82 Joo Koon Circle, Singapore 638356, Singapore",638356.0,Pioneer,1.3272042,103.6761,0.12029514490055122,-0.23168387771460824,-0.05569436640702851
NTUC FP Thomson Plaza,4,33,"Thomson Plaza, 301 Upper Thomson Road, Singapore 574408, Singapore",574408.0,Bishan,1.3548,103.8308,0.12029514490055122,1.0442795352477807,0.5822873400741659
NTUC FP Marine Parade Central,4,9,"84 Marine Parade Central, Singapore 440084, Singapore",440084.0,Marine Parade,1.302042,103.9065384,0.12029514490055122,-0.6570050153687379,-0.2683549352340933
NTUC FP Lorong 4 Toa Payoh,4,15,"192 Lorong 4 Toa Payoh, Singapore 310192, Singapore",310192.0,Toa Payoh,1.3318475,103.8507613,0.12029514490055122,-0.23168387771460824,-0.05569436640702851
NTUC FP E!Hub @ Downtown East,4,13,"Downtown East, 1 Pasir Ris Close, Singapore 519599, Singapore",519599.0,Pasir Ris,1.3774243,103.9549567,0.12029514490055122,-0.3734575902659848,-0.1265812226827168
NTUC FP Clementi Avenue 2,4,14,"352 Clementi Avenue 2, Singapore 120352, Singapore",120352.0,Clementi,1.3144477,103.7711383,0.12029514490055122,-0.30257073399029655,-0.09113779454487267
NTUC FP Changi Business Park,4,19,"Airport Boulevard, Singapore 819658, Singapore",819658.0,Changi,1.3450101,103.9832089,0.12029514490055122,0.05186354738814488,0.08607934614434805
Ng Nam Thye Trading - Ang Mo Kio Ave 3,4,17,"51@AMK, 51 Ang Mo Kio Avenue 3, Singapore 569922, Singapore",569922.0,Ang Mo Kio,1.3692079,103.8470408,0.12029514490055122,-0.08991016516323169,0.015192489868659766
Golden Lagoon Trading,4,15,"136 Marsiling Road, Singapore 730136, Singapore",730136.0,Woodlands,1.4385524,103.7777004,0.12029514490055122,-0.23168387771460824,-0.05569436640702851
Giant Beauty World Centre,4,23,"Beauty World Centre, 144 Upper Bukit Timah Road, Singapore 588177, Singapore",588177.0,,1.3422789,103.7761675,0.12029514490055122,0.335410972490898,0.22785305869572461
FP Xpress MacPherson,4,18,"Merpati Road, Singapore 370078, Singapore",370078.0,Geylang,1.3273112,103.8852397,0.12029514490055122,-0.019023308887543406,0.05063591800650391
Cold Storage Compass One,4,27,"Compass One, 1 Sengkang Square, Singapore 545078, Singapore",545078.0,Seng Kang,1.3917911,103.8948801,0.12029514490055122,0.6189583975936511,0.3696267712471012
Chuan Hao Departmental Store,4,5,"Singapore Polytechnic, 500 Dover Road, Singapore 139651, Singapore",139651.0,Queenstown,1.3075788,103.7818,0.12029514490055122,-0.9405524404714911,-0.4101286477854699
Chop Yeo Thong Heng,4,9,"83 Macpherson Lane, Singapore 368230, Singapore",368230.0,Macpherson,1.3316515,103.8853123,0.12029514490055122,-0.6570050153687379,-0.2683549352340933
Chong Hoe Tong,4,16,"21 Lorong 7 Toa Payoh, Singapore 310021, Singapore",310021.0,Toa Payoh,1.3354867,103.857473,0.12029514490055122,-0.16079702143891997,-0.020250938269184372
Cheng Chew Wah Agency,4,17,"20 Frankel Terrace, Singapore 416551, Singapore",416551.0,Frankel,1.3190577,103.9145234,0.12029514490055122,-0.08991016516323169,0.015192489868659766
Cheers Haig Rd,4,14,"12 Haig Road, Singapore 430012, Singapore",430012.0,Geylang,1.315608,103.8959868,0.12029514490055122,-0.30257073399029655,-0.09113779454487267
7-Eleven McCallum Street,4,27,"3 McCallum Street, Singapore 069047, Singapore",69047.0,Downtown Core,1.2797323,103.8475943,0.12029514490055122,0.6189583975936511,0.3696267712471012
7-Eleven Chua Chu Kang Drive,4,22,"Blk 689B, Choa Chu Kang Crescent, Singapore 681672, Singapore",681672.0,Choa Chu Kang,1.403112,103.7497763,0.12029514490055122,0.2645241162152097,0.19240963055788046
7-Eleven Changi,4,16,"Airport Boulevard, Singapore 819658, Singapore",819658.0,Changi,1.3450101,103.9832089,0.12029514490055122,-0.16079702143891997,-0.020250938269184372
Tan Ah Leck Trading Jurong East,3,4,"151 Bukit Batok Street 11, Singapore 650151, Singapore",650151.0,Bukit Batok,1.3486319,103.7443246,-0.1974994916277705,-1.0114392967471793,-0.6044693941874749
Tan Ah Leck Trading,3,23,"151 Bukit Batok Street 11, Singapore 650151, Singapore",650151.0,Bukit Batok,1.3486319,103.7443246,-0.1974994916277705,0.335410972490898,0.06895574043156376
Superbowl Jurong Pte Ltd,3,22,"SuperBowl Jurong, 1 Yuan Ching Road, Singapore 618640, Singapore",618640.0,Jurong West,1.3259058,103.724653,-0.1974994916277705,0.2645241162152097,0.03351231229371961
Singapore Pools Yishun N2 Branch,3,21,"Yishun Avenue 5, Singapore 768794, Singapore",768794.0,Yishun,1.430368,103.8353628,-0.1974994916277705,0.19363725993952144,-0.0019311158441245313
Singapore Pools Telok Blangah Crescent Branch,3,19,"6 Telok Blangah Crescent, Singapore 090008, Singapore",90008.0,Bukit Merah,1.2781865,103.8186647,-0.1974994916277705,0.05186354738814488,-0.07281797211981281
Singapore Pools Teban Gardens Branch,3,15,"37 Teban Gardens Road, Singapore 600037, Singapore",600037.0,,1.3205297,103.742544,-0.1974994916277705,-0.23168387771460824,-0.2145916846711894
Singapore Pools Sim Lim Square Branch,3,21,"Sim Lim Square, 1 Rochor Canal Road, Singapore 188504, Singapore",188504.0,Rochor,1.3030825,103.8528968,-0.1974994916277705,0.19363725993952144,-0.0019311158441245313
Singapore Pools Peace Centre Branch,3,17,"1 #03-01/02/03 Sophia Road Peace Centre, Singapore 188351, Singapore",188351.0,Rochor,1.3015125,103.8496184,-0.1974994916277705,-0.08991016516323169,-0.14370482839550108
Singapore Pools Pasir Ris N7 Branch,3,25,"Pasir Ris Drive 1, Singapore 518070, Singapore",518070.0,Pasir Ris,1.3720937,103.9473728,-0.1974994916277705,0.47718468504227457,0.13984259670725202
Singapore Pools Bukit Gombak Branch,3,26,"374 Bukit Batok Street 31, Singapore 650374, Singapore",650374.0,Bukit Batok,1.3583104,103.750449,-0.1974994916277705,0.5480715413179629,0.1752860248450962
Singapore Pools Ang Mo Kio N2A Branch,3,23,"North-South Corridor, Singapore 560728, Singapore",560728.0,Ang Mo Kio,1.3691149,103.8454342,-0.1974994916277705,0.335410972490898,0.06895574043156376
Sheng Siong Tanglin Halt Road,3,19,"Commonwealth View, 88 Tanglin Halt Road, Singapore 141088, Singapore",141088.0,Queenstown,1.3013864,103.79844,-0.1974994916277705,0.05186354738814488,-0.07281797211981281
Seah Geok Eng Agency,3,31,"Rivervale Plaza, 118 Rivervale Drive, Singapore 540118, Singapore",540118.0,Seng Kang,1.385716,103.9020016,-0.1974994916277705,0.9025058226964042,0.3525031655343169
NTUC FP Yew Tee Point,3,19,"Yew Tee Point, Choa Chu Kang North 6, Singapore 689580, Singapore",689580.0,Choa Chu Kang,1.3974014,103.7467406,-0.1974994916277705,0.05186354738814488,-0.07281797211981281
NTUC FP Woodlands Civic Centre,3,19,"Woodlands Civic Centre, 900 South Woodlands Drive, Singapore 730900, Singapore",730900.0,Woodlands,1.4350059,103.7869203,-0.1974994916277705,0.05186354738814488,-0.07281797211981281
NTUC FP Tampines St 44,3,12,"475 Tampines Street 44, Singapore 520471, Singapore",520471.0,Tampines,1.3603807,103.9532074,-0.1974994916277705,-0.4443444465416731,-0.3209219690847218
NTUC FP Tampines St  83,3,19,"Tampines Central Community Club, 866A Tampines Street 83, Singapore 521866, Singapore",521866.0,Tampines,1.3554401,103.9346654,-0.1974994916277705,0.05186354738814488,-0.07281797211981281
NTUC FP Rivervale Mall,3,8,"Rivervale Mall, 11 Rivervale Crescent, Singapore 545082, Singapore",545082.0,Seng Kang,1.3919537,103.9047236,-0.1974994916277705,-0.7278918716444263,-0.46269568163609837
NTUC FP New Upper Changi Road,3,17,"57 New Upper Changi Road, Singapore 461057, Singapore",461057.0,Bedok,1.3246666,103.9414375,-0.1974994916277705,-0.08991016516323169,-0.14370482839550108
NTUC FP Marsiling MRT Station,3,20,"71 Woodlands Avenue 3, Singapore 739044, Singapore",739044.0,Woodlands West,1.4323902,103.7741183,-0.1974994916277705,0.12275040366383316,-0.03737454398196867
NTUC FP Limbang Shopping Centre,3,15,"Limbang Shopping Centre, Choa Chu Kang North 5, Singapore 680533, Singapore",680533.0,Choa Chu Kang,1.3920843,103.7433168,-0.1974994916277705,-0.23168387771460824,-0.2145916846711894
NTUC FP Jem,3,40,"JEM, 50 Jurong Gateway Road, Singapore 608549, Singapore",608549.0,Jurong East,1.332647,103.7433111,-0.1974994916277705,1.5404875291775988,0.6714940187749141
NTUC FP Century Square,3,4,"Century Square, 2 Tampines Central 5, Singapore 529509, Singapore",529509.0,Tampines,1.3525968,103.9436741,-0.1974994916277705,-1.0114392967471793,-0.6044693941874749
NTUC FP Bukit Panjang Plaza,3,21,"Bukit Panjang Plaza, 1 Jelebu Road, Singapore 677743, Singapore",677743.0,Bukit Panjang,1.3803722,103.7642617,-0.1974994916277705,0.19363725993952144,-0.0019311158441245313
Nalayanee Trading Enterprise,3,12,"129 Upper Paya Lebar Road, Singapore 534829, Singapore",534829.0,Toa Payoh,1.3384901,103.8864474,-0.1974994916277705,-0.4443444465416731,-0.3209219690847218
Lim Heng Ee Trading Pte. Ltd.,3,15,"41 Kallang Place, Singapore 339153, Singapore",339153.0,Kallang Bahru,1.3155916,103.8693,-0.1974994916277705,-0.23168387771460824,-0.2145916846711894
Li Thoe Trading,3,23,"119 Aljunied Avenue 2, Singapore 380119, Singapore",380119.0,Geylang,1.3192072,103.886444,-0.1974994916277705,0.335410972490898,0.06895574043156376
Kwek Lee Eng Agency,3,17,"Textile Centre, 200 Jalan Sultan, Singapore 199018, Singapore",199018.0,Kallang,1.3038262,103.8614018,-0.1974994916277705,-0.08991016516323169,-0.14370482839550108
Kim Chwee Trading,3,18,"Blk A #01-04 Kaki Bukit Avenue 6, Singapore 417883, Singapore",417883.0,Paya Lebar,1.341353,103.912393,-0.1974994916277705,-0.019023308887543406,-0.10826140025765696
Hougang United Football Club,3,5,"617, Hougang Avenue 2, Singapore 530631, Singapore",530631.0,Hougang,1.3695122,103.8834,-0.1974994916277705,-0.9405524404714911,-0.5690259660496308
Giant Pioneer Mall,3,21,"Pioneer Mall, 638 Jurong West Street 61, Singapore 640638, Singapore",640638.0,Jurong West,1.3418699,103.6973858,-0.1974994916277705,0.19363725993952144,-0.0019311158441245313
Giant Paya Lebar Square,3,22,"Paya Lebar Square, 60 Paya Lebar Road, Singapore 409051, Singapore",409051.0,Geylang,1.3191135,103.8924858,-0.1974994916277705,0.2645241162152097,0.03351231229371961
Giant Compassvale Bow,3,14,"266 Compassvale Bow, Singapore 540266, Singapore",540266.0,Seng Kang,1.3817505,103.8969228,-0.1974994916277705,-0.30257073399029655,-0.2500351128090335
Everbright  Services,3,18,"Depot Heights Shopping Centre, 108 Depot Road, Singapore 100108, Singapore",100108.0,Bukit Merah,1.2812742,103.8099871,-0.1974994916277705,-0.019023308887543406,-0.10826140025765696
Chua Hong Kim Trading,3,25,"237 Serangoon Avenue 3, Singapore 550253, Singapore",550253.0,Serangoon,1.3536057,103.8698424,-0.1974994916277705,0.47718468504227457,0.13984259670725202
7-Eleven Sin Ming,3,13,"244 Upper Thomson Road, Singapore 574369, Singapore",574369.0,Bishan,1.3533996,103.8346195,-0.1974994916277705,-0.3734575902659848,-0.28547854094687763
7-Eleven Plaza Singapura,3,19,"Plaza Singapura, 68 Orchard Road, Singapore 238839, Singapore",238839.0,Museum,1.3003302,103.8451764,-0.1974994916277705,0.05186354738814488,-0.07281797211981281
7-Eleven Circular Rd,3,11,"73 Circular Road, Singapore 049423, Singapore",49423.0,Singapore River,1.2866714,103.8490196,-0.1974994916277705,-0.5152313028173614,-0.35636539722256594
7-Eleven Big Mac Centre,3,1,"51@AMK, 51 Ang Mo Kio Avenue 3, Singapore 569922, Singapore",569922.0,Ang Mo Kio,1.3692898,103.8471818,-0.1974994916277705,-1.224099865574244,-0.7107996786010073
7-Eleven Bedok North Street 2,3,17,"Bedok North Street 2, Singapore 460122, Singapore",460122.0,Bedok North,1.3286351,103.9372078,-0.1974994916277705,-0.08991016516323169,-0.14370482839550108
Yeo Kean Fatt Dept Store,2,6,"17 Bedok South Road, Singapore 460017, Singapore",460017.0,Bedok,1.3201238,103.9354484,-0.5152941281560922,-0.8696655841958028,-0.6924798561759475
U Stars Keat Hong Link,2,5,"817 Keat Hong Link, Singapore 680817, Singapore",680817.0,Choa Chu Kang,1.3776376,103.7495902,-0.5152941281560922,-0.9405524404714911,-0.7279232843137917
Tampines Trading 824,2,16,"824 Tampines Street 81, Singapore 520824, Singapore",520824.0,Tampines,1.3490499,103.9327527,-0.5152941281560922,-0.16079702143891997,-0.3380455747975061
Singapore Pools Lorong Lew Lian Branch,2,16,"2 Lorong Lew Lian, Singapore 531002, Singapore",531002.0,Serangoon,1.3505921,103.8757788,-0.5152941281560922,-0.16079702143891997,-0.3380455747975061
Singapore Pools Geylang Rd Branch,2,6,"139 Geylang Road, Singapore 389226, Singapore",389226.0,Kampong Bugis,1.3111923,103.8741106,-0.5152941281560922,-0.8696655841958028,-0.6924798561759475
Singapore Pools Fajar Rd Branch,2,19,"Fajar Shopping Centre, 445 Fajar Road, Singapore 670445, Singapore",670445.0,Bukit Panjang,1.3834015,103.7712169,-0.5152941281560922,0.05186354738814488,-0.23171529038397368
Singapore Pools Empress Rd Branch,2,16,"8 Empress Road, Singapore 266227, Singapore",266227.0,Bukit Timah,1.3163869,103.8053655,-0.5152941281560922,-0.16079702143891997,-0.3380455747975061
Singapore Pools Chai Chee Branch,2,11,"36 Chai Chee Road, Singapore 461036, Singapore",461036.0,Bedok,1.3253661,103.9253322,-0.5152941281560922,-0.5152313028173614,-0.5152627154867269
Singapore Pools Canberra Branch,2,24,"SWSB20, 505 Canberra Link, Singapore 750505, Singapore",750505.0,Sembawang,1.4502245,103.8227708,-0.5152941281560922,0.40629782876658627,-0.05449814969475297
Singapore Pools Bukit Batok N3 Branch,2,11,"324 Bukit Batok Street 33, Singapore 650324, Singapore",650324.0,Bukit Batok,1.3621626,103.7478577,-0.5152941281560922,-0.5152313028173614,-0.5152627154867269
Singapore Pools Balestier Rd Branch,2,10,"Blk 2, 2 Balestier Road, Singapore 329901, Singapore",329901.0,Novena,1.3262024,103.8423091,-0.5152941281560922,-0.5861181590930497,-0.5507061436245709
Seah Koon Huat (Boon Tiong Rd),2,11,"Tiong Bahru View, 11A Boon Tiong Road, Singapore 161011, Singapore",161011.0,Bukit Merah,1.2861153,103.8289494,-0.5152941281560922,-0.5152313028173614,-0.5152627154867269
Seah Geok Eng Upper Serangoon View,2,11,"31 Upper Serangoon View, Singapore 534237, Singapore",534237.0,Kangkar,1.3748539,103.9030884,-0.5152941281560922,-0.5152313028173614,-0.5152627154867269
S E Store,2,13,"41 West Coast Highway, Singapore 119615, Singapore",119615.0,Port,1.285532,103.7675,-0.5152941281560922,-0.3734575902659848,-0.4443758592110385
Prime Yishun Ave 6,2,2,"334A Yishun Street 31, Singapore 761334, Singapore",761334.0,Yishun East,1.432994,103.8453055,-0.5152941281560922,-1.153213009298556,-0.834253568727324
Prime Woodlands,2,15,"Sing Lun Building, 30 Marsiling Lane, Singapore 730210, Singapore",730210.0,Woodlands,1.4480459,103.7759,-0.5152941281560922,-0.23168387771460824,-0.37348900293535026
Prime Joo Seng,2,2,"1 Upper Aljunied Lane, Singapore 360004, Singapore",360004.0,Toa Payoh,1.3343555,103.878653,-0.5152941281560922,-1.153213009298556,-0.834253568727324
Prime Compassvale St,2,14,"Compassvale Street, Singapore 545091, Singapore",545091.0,Seng Kang,1.3951499,103.8980618,-0.5152941281560922,-0.30257073399029655,-0.4089324310731944
Precise Optics,2,13,"Shan Road, Singapore 329550, Singapore",329550.0,Novena,1.3252963,103.8469,-0.5152941281560922,-0.3734575902659848,-0.4443758592110385
Papillon Florist Pte Ltd,2,10,"133 Jalan Bukit Merah, Singapore 160132, Singapore",160132.0,Bukit Merah,1.2795523,103.8274126,-0.5152941281560922,-0.5861181590930497,-0.5507061436245709
Overseas Emporium (Pte) Ltd,2,22,"People's Park Complex, 02-67 1 Park Rd, Singapore 059108, Singapore",59108.0,Outram,1.2841159,103.8424418,-0.5152941281560922,0.2645241162152097,-0.12538500597044125
NTUC FP Tampines St 11,2,7,"107 Tampines Street 11, Singapore 521108, Singapore",521108.0,Tampines,1.3483876,103.9480679,-0.5152941281560922,-0.7987787279201145,-0.6570364280381034
NTUC FP Tai Seng,2,9,"Tai Seng, 33 Upper Paya Lebar Road, Singapore 534803, Singapore",534803.0,Toa Payoh,1.3358756,103.8877164,-0.5152941281560922,-0.6570050153687379,-0.586149571762415
NTUC FP Shaw Plaza,2,3,"Shaw Plaza, 360 Balestier Road, Singapore 329783, Singapore",329783.0,Novena,1.3252572,103.8510491,-0.5152941281560922,-1.0823261530228676,-0.7988101405894799
NTUC FP Sengkang East Ave,2,5,"279 MSCP (SK92) and Shops, 279 Sengkang East Avenue, Singapore 540279, Singapore",540279.0,Seng Kang,1.3863837,103.893323,-0.5152941281560922,-0.9405524404714911,-0.7279232843137917
NTUC FP Seletar Mall,2,12,"Seletar Mall, 33 Sengkang West Avenue, Singapore 797653, Singapore",797653.0,Seng Kang,1.3915208,103.8760834,-0.5152941281560922,-0.4443444465416731,-0.4798192873488827
NTUC FP Punggol Plaza,2,26,"Punggol Plaza, 168 Punggol Field, Singapore 820168, Singapore",820168.0,Punggol,1.394228,103.913016,-0.5152941281560922,0.5480715413179629,0.01638870658093533
NTUC FP Punggol Oasis Terraces,2,10,"Oasis Terraces, 681 Punggol Drive, Singapore 820681, Singapore",820681.0,Punggol,1.4026301,103.9129247,-0.5152941281560922,-0.5861181590930497,-0.5507061436245709
NTUC FP Kallang Wave Mall,2,11,"Kallang Wave Mall, Stadium Place, Singapore 397628, Singapore",397628.0,Kallang,1.3032243,103.8728714,-0.5152941281560922,-0.5152313028173614,-0.5152627154867269
NTUC FP Hougang Mall,2,22,"Hougang Mall, 90 Hougang Avenue 10, Singapore 538766, Singapore",538766.0,Hougang,1.3725894,103.8937225,-0.5152941281560922,0.2645241162152097,-0.12538500597044125
NTUC FP Eastpoint Mall,2,30,"East Point, Simei Street 6, Singapore 520256, Singapore",520256.0,Tampines,1.3427145,103.9530415,-0.5152941281560922,0.831618966420716,0.15816241913231188
NTUC FP Dawson Place,2,15,"53 Commonwealth Avenue, Singapore 144053, Singapore",144053.0,Queenstown,1.2927082,103.8084,-0.5152941281560922,-0.23168387771460824,-0.37348900293535026
Li Li Cheng Supermarket (Punggol) Pte Ltd,2,15,"Punggol Regalia, 273C Punggol Place, Singapore 823273, Singapore",823273.0,Punggol,1.4023496,103.9012804,-0.5152941281560922,-0.23168387771460824,-0.37348900293535026
Lee Ah Lan Trading,2,8,"61 Teban Gardens Road, Singapore 600065, Singapore",600065.0,Jurong East,1.3221316,103.7384602,-0.5152941281560922,-0.7278918716444263,-0.6215929999002592
Hock Soon Ann,2,14,"73 Bedok South Avenue 3, Singapore 460073, Singapore",460073.0,Bedok,1.3199523,103.9439787,-0.5152941281560922,-0.30257073399029655,-0.4089324310731944
Goh Geok Kwee (Bukit Merah),2,18,"Blk 124, 01-144 Bukit Merah Lane 1, Singapore 150127, Singapore",150127.0,Bukit Merah,1.2862127,103.8034449,-0.5152941281560922,-0.019023308887543406,-0.26715871852181783
Gerk Chwee Trading,2,17,"10 Kensington Park Road, Singapore 557255, Singapore",557255.0,Serangoon Garden,1.3650374,103.8660568,-0.5152941281560922,-0.08991016516323169,-0.30260214665966195
Cheng Tai Boon Beng,2,14,"Orchard Plaza, 150 Orchard Road, Singapore 238841, Singapore",238841.0,Orchard,1.3010249,103.8410995,-0.5152941281560922,-0.30257073399029655,-0.4089324310731944
Cheng Chew Wah Agency (Bedok South),2,15,"17 Bedok South Road, Singapore 460017, Singapore",460017.0,Bedok,1.3202245,103.9357353,-0.5152941281560922,-0.23168387771460824,-0.37348900293535026
Cheers Hougang Ave 3,2,10,"23 Hougang Avenue 3, Singapore 530024, Singapore",530024.0,Hougang,1.3649403,103.8907136,-0.5152941281560922,-0.5861181590930497,-0.5507061436245709
Balestier Khalsa Football Club,2,0,"Philips TP2, 622 Lorong 1 Toa Payoh, Singapore 319763, Singapore",319763.0,Toa Payoh,1.3346246,103.8428,-0.5152941281560922,-1.2949867218499325,-0.9051404250030124
A P Minimart Bedok Reservoir,2,12,"121 Bedok Reservoir Road, Singapore 470121, Singapore",470121.0,Bedok,1.331378,103.909657,-0.5152941281560922,-0.4443444465416731,-0.4798192873488827
7-Eleven Jalan Leban,2,12,"39 Jalan Leban, Singapore 574416, Singapore",574416.0,Ang Mo Kio,1.3732041,103.8307393,-0.5152941281560922,-0.4443444465416731,-0.4798192873488827
7-Eleven Foch Rd,2,9,"36 Foch Road, Singapore 209276, Singapore",209276.0,Kallang,1.3125522,103.8602028,-0.5152941281560922,-0.6570050153687379,-0.586149571762415
7-Eleven Bukit Batok West Avenue 6,2,10,"132 Bukit Batok West Avenue 6, Singapore 650132, Singapore",650132.0,Bukit Batok,1.3503796,103.7457888,-0.5152941281560922,-0.5861181590930497,-0.5507061436245709
Warriors Football Club (S),1,0,"Canadian International School, Boon Lay Way, Singapore 648164, Singapore",648164.0,Jurong West,1.3466409,103.7274,-0.833088764684414,-1.2949867218499325,-1.0640377432671733
Uni-Foto Pte Ltd,1,10,"Lucky Plaza, 304 Orchard Road, Singapore 238863, Singapore",238863.0,Orchard,1.3043767,103.8338798,-0.833088764684414,-0.5861181590930497,-0.7096034618887318
Tuas View,1,10,"67S Tuas South Avenue 1, Singapore 637601, Singapore",637601.0,Tuas Promenade,1.3138196,103.6257365,-0.833088764684414,-0.5861181590930497,-0.7096034618887318
Springdale Garments Co,1,28,"408 Ang Mo Kio Avenue 10, Singapore 560408, Singapore",560408.0,Ang Mo Kio,1.3624694,103.8544125,-0.833088764684414,0.6898452538693394,-0.07162175540753729
Singapore Pools Yishun N4 Branch,1,29,"415, Yishun Ring Road, Singapore 760413, Singapore",760413.0,Yishun,1.4246239,103.8457337,-0.833088764684414,0.7607321101450277,-0.03617832726969311
Singapore Pools Woodlands N8 Branch,1,29,"Woodlands Avenue 2, Singapore 738526, Singapore",738526.0,Woodlands,1.4381922,103.7889597,-0.833088764684414,0.7607321101450277,-0.03617832726969311
Singapore Pools Upp Thomson Branch,1,3,"Opposite Sembawang Hills Food Centre, Upper Thomson Road, Singapore 574416, Singapore",574416.0,Ang Mo Kio,1.3725206,103.8285173,-0.833088764684414,-1.0823261530228676,-0.9577074588536407
Singapore Pools Upp Boon Keng Branch,1,25,"UOB, 18 Upper Boon Keng Road, Singapore 380018, Singapore",380018.0,Kallang,1.314381,103.8720873,-0.833088764684414,0.47718468504227457,-0.1779520398210697
Singapore Pools Lengkok Bahru Branch,1,15,"Lengkok Bahru Heights, 63B Lengkok Bahru, Singapore 152063, Singapore",152063.0,Bukit Merah,1.2895097,103.8156477,-0.833088764684414,-0.23168387771460824,-0.5323863211995111
Singapore Pools Great World City Branch,1,15,"Great World City, 1 Kim Seng Promenade, Singapore 237994, Singapore",237994.0,Singapore River,1.2936417,103.8319293,-0.833088764684414,-0.23168387771460824,-0.5323863211995111
Singapore Pools Everton Park Branch,1,13,"7 Neil Road, Singapore 080007, Singapore",80007.0,Bukit Merah,1.277067,103.8393496,-0.833088764684414,-0.3734575902659848,-0.6032731774751994
Singapore Pools Bishan N1 Branch,1,10,"152 Bishan Street 11, Singapore 570152, Singapore",570152.0,Bishan,1.3455241,103.8544795,-0.833088764684414,-0.5861181590930497,-0.7096034618887318
Sheng Siong Marsiling Mall,1,3,"Marsiling Mall Hawker Centre, 4 Woodlands Street 12, Singapore 738623, Singapore",738623.0,Woodlands,1.4333206,103.7798555,-0.833088764684414,-1.0823261530228676,-0.9577074588536407
River Hong Bao,1,2,"Jurong East Avenue 1, Singapore 600301, Singapore",600301.0,Jurong East,1.3436102,103.7357,-0.833088764684414,-1.153213009298556,-0.9931508869914849
Prime Serangoon North,1,11,"542B Serangoon North Avenue 3, Singapore 552542, Singapore",552542.0,Serangoon,1.3735994,103.8713175,-0.833088764684414,-0.5152313028173614,-0.6741600337508877
Prime Hougang,1,4,"941 Upper Serangoon Road, Singapore 534711, Singapore",534711.0,Hougang,1.3612182,103.8862529,-0.833088764684414,-1.0114392967471793,-0.9222640307157965
Prime Buangkok Square,1,7,"Buangkok Square Mall, 991 Buangkok Link, Singapore 530991, Singapore",530991.0,Hougang,1.3846918,103.8819586,-0.833088764684414,-0.7987787279201145,-0.8159337463022642
Prime Admiralty Place,1,4,"678A Admiralty Wet Market & MSCP, Town Council Cycling Path, Singapore 738991, Singapore",738991.0,Woodlands,1.4404597,103.8017782,-0.833088764684414,-1.0114392967471793,-0.9222640307157965
Premier Security Co-operative Ltd,1,11,"Little India, Rochor Canal Road, Singapore 188505, Singapore",188505.0,Rochor,1.3095329,103.856624,-0.833088764684414,-0.5152313028173614,-0.6741600337508877
Pinthely Floral Centre,1,12,"83 Commonwealth Close, Singapore 140083, Singapore",140083.0,Queenstown,1.304379,103.8001,-0.833088764684414,-0.4443444465416731,-0.6387166056130436
Ong Eng Siang Trading,1,10,"71 Seng Poh Road, Singapore 168898, Singapore",168898.0,Bukit Merah,1.284286,103.8324117,-0.833088764684414,-0.5861181590930497,-0.7096034618887318
NTUC FP Tiong Bahru Plaza,1,18,"Tiong Bahru Plaza, 302 Tiong Bahru Road, Singapore 164019, Singapore",164019.0,Bukit Merah,1.2866535,103.8271459,-0.833088764684414,-0.019023308887543406,-0.4260560367859787
NTUC FP The Woodleigh Mall,1,2,"The Woodleigh Mall, 11 Bidadari Park Drive, Singapore 341115, Singapore",341115.0,Toa Payoh,1.3387347,103.8717689,-0.833088764684414,-1.153213009298556,-0.9931508869914849
NTUC FP Telok Blangah Street 32,1,4,"78B Telok Blangah Street 32, Singapore 100066, Singapore",100066.0,Bukit Merah,1.2736662,103.8091203,-0.833088764684414,-1.0114392967471793,-0.9222640307157965
NTUC FP Square 2,1,3,"Novena, Irrawaddy Road, Singapore 307506, Singapore",307506.0,Novena,1.3205626,103.8440211,-0.833088764684414,-1.0823261530228676,-0.9577074588536407
NTUC FP Senja Road,1,8,"Blk 628, 628 Senja Road, Singapore 670628, Singapore",670628.0,Bukit Panjang,1.3851246,103.7603397,-0.833088764684414,-0.7278918716444263,-0.78049031816442
NTUC FP Paya Lebar Quarter,1,2,"Paya Lebar Quarter Retail Mall, 10 Paya Lebar Road, Singapore 409057, Singapore",409057.0,Geylang,1.3176666,103.8931627,-0.833088764684414,-1.153213009298556,-0.9931508869914849
NTUC FP Parkway Parade,1,16,"Parkway Parade, 80 Marine Parade Road, Singapore 449269, Singapore",449269.0,Marine Parade,1.3013366,103.9052333,-0.833088764684414,-0.16079702143891997,-0.49694289306166695
NTUC FP Le Quest,1,1,"Le Quest, 10 Bukit Batok Street 41, Singapore 657990, Singapore",657990.0,Bukit Batok,1.3557406,103.7408842,-0.833088764684414,-1.224099865574244,-1.028594315129329
NTUC FP Kallang Bahru,1,12,"71 Kallang Bahru, Singapore 330071, Singapore",330071.0,Kallang,1.3209366,103.8705671,-0.833088764684414,-0.4443444465416731,-0.6387166056130436
NTUC FP Hougang St 21,1,19,"202 Hougang Street 21, Singapore 530202, Singapore",530202.0,Hougang,1.3575249,103.8839874,-0.833088764684414,0.05186354738814488,-0.3906126086481345
NTUC FP Hougang Point,1,5,"941 Upper Serangoon Road, Singapore 534711, Singapore",534711.0,Hougang,1.3612182,103.8862529,-0.833088764684414,-0.9405524404714911,-0.8868206025779526
NTUC FP Hillion Mall,1,19,"Hillion Mall, 17 Petir Road, Singapore 678278, Singapore",678278.0,Bukit Panjang,1.378531,103.7632107,-0.833088764684414,0.05186354738814488,-0.3906126086481345
NTUC FP Coronation,1,7,"The Tresor, 28 Duchess Road, Singapore 269028, Singapore",269028.0,Bukit Timah,1.3239058,103.8074,-0.833088764684414,-0.7987787279201145,-0.8159337463022642
NTUC FP Compassvale Link,1,4,"Compassvale Link, Singapore 540269, Singapore",540269.0,Compassvale,1.3835873,103.8951903,-0.833088764684414,-1.0114392967471793,-0.9222640307157965
NTUC FP Canberra Plaza,1,4,"Canberra Plaza, 133 Canberra View, Singapore 750133, Singapore",750133.0,Sembawang,1.4432641,103.8305674,-0.833088764684414,-1.0114392967471793,-0.9222640307157965
NTUC FP Bishan St 13,1,12,"510 Bishan Street 13, Singapore 570510, Singapore",570510.0,Bishan,1.3487352,103.8498826,-0.833088764684414,-0.4443444465416731,-0.6387166056130436
NTUC FP Bedok North St 1,1,34,"212 Bedok North Street 1, Singapore 460212, Singapore",460212.0,Bedok,1.3259118,103.9315981,-0.833088764684414,1.115166391523469,0.14103881341952756
NTUC Foodfare - Seletar Mall,1,1,"Seletar Mall, 33 Sengkang West Avenue, Singapore 797653, Singapore",797653.0,Seng Kang,1.3915208,103.8760834,-0.833088764684414,-1.224099865574244,-1.028594315129329
Nel's Store,1,8,"553 Bedok Reservoir Road, Singapore 479269, Singapore",479269.0,Bedok,1.3382986,103.9203,-0.833088764684414,-0.7278918716444263,-0.78049031816442
Ichido Kopitiam City,1,8,"Kopitiam City, Sengkang Central, Singapore 545061, Singapore",545061.0,Seng Kang,1.3819067,103.8934239,-0.833088764684414,-0.7278918716444263,-0.78049031816442
Hao Mart Geylang Lor 24,1,6,"448 Geylang Road, Singapore 389413, Singapore",389413.0,Geylang,1.3132758,103.8836595,-0.833088764684414,-0.8696655841958028,-0.8513771744401084
Goh Geok Kwee Agency,1,5,"84 Redhill Lane, Singapore 150084, Singapore",150084.0,Bukit Merah,1.2872356,103.8187506,-0.833088764684414,-0.9405524404714911,-0.8868206025779526
Giant VivoCity,1,3,"VivoCity, 1 Harbourfront Avenue, Singapore 098585, Singapore",98585.0,Bukit Merah,1.2648859,103.8221267,-0.833088764684414,-1.0823261530228676,-0.9577074588536407
Giant Sembawang Shopping Centre,1,12,"Sembawang Shopping Centre, 604 Sembawang Road, Singapore 758459, Singapore",758459.0,Sembawang,1.4414712,103.8245883,-0.833088764684414,-0.4443444465416731,-0.6387166056130436
Giant Greenridge Shopping Centre,1,10,"Greenridge Shopping Centre, 524A Jelapang Road, Singapore 671524, Singapore",671524.0,Bukit Panjang,1.385545,103.7661474,-0.833088764684414,-0.5861181590930497,-0.7096034618887318
Giant Edgefield Plains,1,10,"Waterway Banks, 671 Edgefield Plains, Singapore 820671, Singapore",820671.0,Punggol,1.4055435,103.9120056,-0.833088764684414,-0.5861181590930497,-0.7096034618887318
Chua Seng Dept Store,1,3,"Pet Lovers Centre, 345 Bedok Road, Singapore 469530, Singapore",469530.0,Bedok,1.3313731,103.9473462,-0.833088764684414,-1.0823261530228676,-0.9577074588536407
Chop Yeo Thong Heng (International Plaza),1,3,"International Plaza, 10 Anson Road, Singapore 079903, Singapore",79903.0,Downtown Core,1.275697,103.845748,-0.833088764684414,-1.0823261530228676,-0.9577074588536407
Choice Decor Bedok North,1,12,"416 Bedok North Avenue 2, Singapore 460416, Singapore",460416.0,Bedok,1.3284617,103.9306227,-0.833088764684414,-0.4443444465416731,-0.6387166056130436
China Square Betting Centre - Lottery Lobby (Public),1,1,"51 Telok Ayer Street, Singapore 048441, Singapore",48441.0,Downtown Core,1.2828631,103.8492472,-0.833088764684414,-1.224099865574244,-1.028594315129329
Cheers Bedok North Street 3,1,15,"539 Bedok North Street 3, Singapore 460539, Singapore",460539.0,Bedok,1.3316948,103.9257663,-0.833088764684414,-0.23168387771460824,-0.5323863211995111
Bukit Merah Betting Centre - Lottery Lobby (Public),1,1,"169 Bukit Merah Central, Singapore 159838, Singapore",159838.0,Bukit Merah,1.2835217,103.8186889,-0.833088764684414,-1.224099865574244,-1.028594315129329
B.H. Mini Mart,1,6,"St Andrew's Junior College, 5 Sorby Adams Drive, Singapore 357691, Singapore",357691.0,Toa Payoh,1.3339005,103.8632,-0.833088764684414,-0.8696655841958028,-0.8513771744401084
A P Mini Mart,1,7,"119 Potong Pasir Avenue 1, Singapore 350119, Singapore",350119.0,Toa Payoh,1.3350152,103.8631,-0.833088764684414,-0.7987787279201145,-0.8159337463022642
7-Eleven Upp Thomson Road,1,12,"Opposite Sembawang Hills Food Centre, Upper Thomson Road, Singapore 574416, Singapore",574416.0,Ang Mo Kio,1.3725206,103.8285173,-0.833088764684414,-0.4443444465416731,-0.6387166056130436
7-Eleven Erskine Rd,1,8,"25 Erskine Road, Singapore 069333, Singapore",69333.0,Downtown Core,1.2809093,103.8452225,-0.833088764684414,-0.7278918716444263,-0.78049031816442
7-Eleven Clementi Street 11,1,7,"Blk 109, 109 Sunset Way, Singapore 120109, Singapore",120109.0,Clementi,1.3221737,103.7705122,-0.833088764684414,-0.7987787279201145,-0.8159337463022642
7-Eleven Balestier Rd,1,1,"519 Balestier Road, Singapore 329853, Singapore",329853.0,Novena,1.3264948,103.8463065,-0.833088764684414,-1.224099865574244,-1.028594315129329
Warriors Football Club (S),0,2,"Canadian International School, Boon Lay Way, Singapore 648164, Singapore",648164.0,Jurong West,1.3466409,103.7274,-1.1508834012127356,-1.153213009298556,-1.1520482052556458
Thiam Hoon Traders,0,7,"Blk 124, 01-144 Bukit Merah Lane 1, Singapore 150127, Singapore",150127.0,Bukit Merah,1.2862127,103.8034449,-1.1508834012127356,-0.7987787279201145,-0.9748310645664251
The Little Plaza,0,1,,,,0.0,,-1.1508834012127356,-1.224099865574244,-1.1874916333934897
Tampines Rovers Football Club,0,2,"Our Tampines Hub, 51 Tampines Avenue 4, Singapore 529684, Singapore",529684.0,Tampines,1.352771,103.940312,-1.1508834012127356,-1.153213009298556,-1.1520482052556458
STC Racecourse - Kranji 1,0,1,"39 Sungei Kadut Street 4, Singapore 729238, Singapore",729238.0,Reservoir View,1.421381,103.7475185,-1.1508834012127356,-1.224099865574244,-1.1874916333934897
Singapore Racecourse - MRT Plaza (Public),0,1,"Singapore Turf Club, Woodlands Road, Singapore 738702, Singapore",738702.0,Sungei Kadut,1.424425,103.7617741,-1.1508834012127356,-1.224099865574244,-1.1874916333934897
Singapore Pools Yishun N7 Branch,0,18,"Yishun Avenue 5, Singapore 768794, Singapore",768794.0,Yishun,1.430368,103.8353628,-1.1508834012127356,-0.019023308887543406,-0.5849533550501395
Singapore Pools Woodlands Centre,0,2,"1A Woodlands Centre Road, Singapore 730025, Singapore",730025.0,North Coast,1.4417189,103.7707833,-1.1508834012127356,-1.153213009298556,-1.1520482052556458
Singapore Pools Upp Serangoon Branch,0,3,"Upper Serangoon Road, Singapore 534682, Singapore",534682.0,Hougang,1.3576474,103.8824703,-1.1508834012127356,-1.0823261530228676,-1.1166047771178016
Singapore Pools Rochor Centre Branch,0,1,"1 Rochor Road, Singapore 188425, Singapore",188425.0,Bugis,1.3025558,103.8548721,-1.1508834012127356,-1.224099865574244,-1.1874916333934897
Singapore Pools Lor 4 Toa Payoh Branch,0,16,"85 Lorong 4 Toa Payoh, Singapore 310085, Singapore",310085.0,Toa Payoh,1.3363138,103.848503,-1.1508834012127356,-0.16079702143891997,-0.6558402113258278
Singapore Pools Jalan Batu Branch,0,16,"7 Kampong Kayu Road, Singapore 431001, Singapore",431001.0,Kallang,1.3025083,103.8836721,-1.1508834012127356,-0.16079702143891997,-0.6558402113258278
Singapore Pools Commonwealth Crescent Branch,0,11,"116 Commonwealth Crescent, Singapore 140116, Singapore",140116.0,Queenstown,1.3069324,103.8000377,-1.1508834012127356,-0.5152313028173614,-0.8330573520150485
Singapore Pools Changi Rd Branch,0,13,"324K Changi Road, Singapore 419785, Singapore",419785.0,Bedok,1.3179055,103.908016,-1.1508834012127356,-0.3734575902659848,-0.7621704957393602
Sheng Siong Woodlands Drive 16,0,2,"573 Woodlands Drive 16, Singapore 730573, Singapore",730573.0,Woodlands,1.4309488,103.7985447,-1.1508834012127356,-1.153213009298556,-1.1520482052556458
Sheng Siong Tampines Ave 9,0,3,"602B Tampines Avenue 9, Singapore 522602, Singapore",522602.0,Tampines,1.3612331,103.9375882,-1.1508834012127356,-1.0823261530228676,-1.1166047771178016
Sheng Siong Senja Close,0,1,"643 Senja Road, Singapore 670642, Singapore",670642.0,Bukit Panjang,1.3878715,103.7630773,-1.1508834012127356,-1.224099865574244,-1.1874916333934897
Sheng Siong Sengkang West Avenue,0,5,"455 Sengkang West Avenue, Singapore 790455, Singapore",790455.0,Seng Kang,1.3920742,103.8712149,-1.1508834012127356,-0.9405524404714911,-1.0457179208421135
Sheng Siong Jalan Berseh,0,4,"New World Centre, 1 Jalan Berseh, Singapore 209037, Singapore",209037.0,Rochor,1.3077714,103.8570934,-1.1508834012127356,-1.0114392967471793,-1.0811613489799574
Serangoon Avenue 3   Betting Centre - Lottery Lobby (Public),0,1,"322 Serangoon Avenue 3, Singapore 550322, Singapore",550322.0,Serangoon,1.3515054,103.8682342,-1.1508834012127356,-1.224099865574244,-1.1874916333934897
Seng Yeok Chan Agency,0,24,"338 Ang Mo Kio Street 32, Singapore 560338, Singapore",560338.0,Ang Mo Kio,1.3636436,103.848827,-1.1508834012127356,0.40629782876658627,-0.37229278622307466
Rangoon Betting Centre - Lottery Lobby (Public),0,4,"Worcester Road, Singapore 218903, Singapore",218903.0,Kallang,1.3132459,103.8525,-1.1508834012127356,-1.0114392967471793,-1.0811613489799574
Prime Century Square,0,15,"Century Square, 2 Tampines Central 5, Singapore 529509, Singapore",529509.0,Tampines,1.3522704,103.9438833,-1.1508834012127356,-0.23168387771460824,-0.6912836394636719
Poon Long Heng,0,2,"716 Yishun Street 71, Singapore 760716, Singapore",760716.0,Yishun,1.426455,103.827678,-1.1508834012127356,-1.153213009298556,-1.1520482052556458
NTUC FP Wisteria Mall,0,3,"Wisteria Mall, 598 Yishun Ring Road, Singapore 768698, Singapore",768698.0,Yishun,1.418208,103.8411267,-1.1508834012127356,-1.0823261530228676,-1.1166047771178016
NTUC FP VivoCity,0,8,"VivoCity, 1 Harbourfront Avenue, Singapore 098585, Singapore",98585.0,Bukit Merah,1.2648859,103.8221267,-1.1508834012127356,-0.7278918716444263,-0.9393876364285809
NTUC FP The Woodgrove,0,12,"The Woodgrove, 30 Woodlands Avenue 1, Singapore 739065, Singapore",739065.0,Woodlands,1.42895,103.781124,-1.1508834012127356,-0.4443444465416731,-0.7976139238772043
NTUC FP Punggol Walk,0,7,"Waterway Terraces, 308B Punggol Walk, Singapore 822308, Singapore",822308.0,Punggol,1.4076875,103.8997453,-1.1508834012127356,-0.7987787279201145,-0.9748310645664251
NTUC FP Killiney Rd,0,15,"Doctor Jay Medical Center, 113 Killiney Road, Singapore 239546, Singapore",239546.0,River Valley,1.298006,103.8386113,-1.1508834012127356,-0.23168387771460824,-0.6912836394636719
NTUC FP Bukit Timah Plaza,0,11,"Bukit Timah Plaza, 1 Jalan Anak Bukit, Singapore 588996, Singapore",588996.0,Bukit Timah,1.3387468,103.7786758,-1.1508834012127356,-0.5152313028173614,-0.8330573520150485
Majestic Betting Centre - Lottery Lobby (Public),0,1,"2 Leonie Hill Road, Singapore 238372, Singapore",238372.0,Leonie Hill,1.2976902,103.8343,-1.1508834012127356,-1.224099865574244,-1.1874916333934897
Lee Wah TV & Electric Co,0,14,"Asia Hardware PTE LTD, Geylang Road, Singapore 389509, Singapore",389509.0,Geylang,1.3142787,103.8874656,-1.1508834012127356,-0.30257073399029655,-0.7267270676015161
Keppel Credit Union Co-operative Ltd,0,7,,,,0.0,,-1.1508834012127356,-0.7987787279201145,-0.9748310645664251
Jurong East Betting Centre - Lottery Lobby (Public),0,2,"352 Jurong East Street 31, Singapore 600352, Singapore",600352.0,Jurong East,1.3450286,103.730396,-1.1508834012127356,-1.153213009298556,-1.1520482052556458
Holland Drive Betting Outlet - Lottery Lobby (Public),0,4,"14A Ghim Moh Road, Singapore 271014, Singapore",271014.0,Queenstown,1.3088172,103.7902,-1.1508834012127356,-1.0114392967471793,-1.0811613489799574
Hin Teck Leong Trading Company,0,30,"Little India, Rochor Canal Road, Singapore 188505, Singapore",188505.0,Rochor,1.3078063,103.8522,-1.1508834012127356,0.831618966420716,-0.1596322173960098
Hao Mart Westgate,0,1,"Westgate, 3 Gateway Drive, Singapore 608532, Singapore",608532.0,Jurong East,1.3343054,103.7428429,-1.1508834012127356,-1.224099865574244,-1.1874916333934897
Hao Mart Punggol Walk,0,4,"Waterway Terraces, 308C Punggol Walk, Singapore 823308, Singapore",823308.0,Punggol,1.4081951,103.8989122,-1.1508834012127356,-1.0114392967471793,-1.0811613489799574
Giant Tanjong Katong,0,2,"Joo Chiat Road, Singapore 428820, Singapore",428820.0,Marine Parade,1.3059671,103.9049556,-1.1508834012127356,-1.153213009298556,-1.1520482052556458
Giant Buangkok Cresent,0,10,"982 Buangkok Green, Singapore 532987, Singapore",532987.0,Hougang,1.3807848,103.8792652,-1.1508834012127356,-0.5861181590930497,-0.8685007801528926
Geylang International FC,0,2,"Goodwood Park Hotel, 22 Scotts Road, Singapore 228221, Singapore",228221.0,Orchard,1.3078062,103.8341,-1.1508834012127356,-1.153213009298556,-1.1520482052556458
Food Republic i12 Katong,0,2,"i12 Katong, 112 East Coast Road, Singapore 428802, Singapore",428802.0,Marine Parade,1.3052934,103.9051599,-1.1508834012127356,-1.153213009298556,-1.1520482052556458
Choice Decor Co-Operative Society Ltd,0,18,"28 Sin Ming Drive, Singapore 575624, Singapore",575624.0,Bishan,1.3569044,103.8364,-1.1508834012127356,-0.019023308887543406,-0.5849533550501395
China Square Betting Centre - Level 2,0,1,"51 Telok Ayer Street, Singapore 048441, Singapore",48441.0,Downtown Core,1.2828631,103.8492472,-1.1508834012127356,-1.224099865574244,-1.1874916333934897
Cheers Woodlands Centre,0,4,"50 Woodlands Industrial Park D Street 2, Singapore 738799, Singapore",738799.0,Kranji,1.4342695,103.7679,-1.1508834012127356,-1.0114392967471793,-1.0811613489799574
Cheers Northshore Plaza II,0,3,"Northshore Plaza II, 418 Northshore Drive, Singapore 820418, Singapore",820418.0,Punggol,1.417666,103.9013141,-1.1508834012127356,-1.0823261530228676,-1.1166047771178016
Cheers Maude Rd,0,2,"65 Maude Road, Singapore 208510, Singapore",208510.0,Lavender,1.3080797,103.8582491,-1.1508834012127356,-1.153213009298556,-1.1520482052556458
Bedok Betting Centre - Lottery Lobby (Public),0,3,"New Upper Changi Road, Singapore 460223, Singapore",460223.0,Bedok,1.3236038,103.9273405,-1.1508834012127356,-1.0823261530228676,-1.1166047771178016
Balestier Khalsa Football Club,0,5,"Giffard Mansion, Balestier Road, Singapore 329832, Singapore",329832.0,Novena,1.3260311,103.8492,-1.1508834012127356,-0.9405524404714911,-1.0457179208421135
7-Eleven Tai Thong Crescent,0,5,"25 Tai Thong Crescent, Singapore 347857, Singapore",347857.0,Toa Payoh,1.3290505,103.8696971,-1.1508834012127356,-0.9405524404714911,-1.0457179208421135
7-Eleven Kim Tian,0,1,"126C Kim Tian Road, Singapore 160121, Singapore",160121.0,Bukit Merah,1.2824863,103.8291805,-1.1508834012127356,-1.224099865574244,-1.1874916333934897
7-Eleven Esplanade MRT Station,0,5,"South Beach Avenue, Esplanade Xchange, Singapore 189560, Singapore",189560.0,Downtown Core,1.2940432,103.8554093,-1.1508834012127356,-0.9405524404714911,-1.0457179208421135
